[
  {"name":"MeeSeva Centre, Karimnagar Town","type":"MeeSeva","district":"Karimnagar","address":"Collectorate Road, Karimnagar","pinCode":"505001","phone":"0878-2245100","lat":18.4386,"lng":79.1288,"mapsLink":"https://maps.google.com/?q=18.4386,79.1288","hours":"9:00 AM – 7:00 PM (Mon–Sat)","holiday":"Sundays & Government Holidays"},
  {"name":"MeeSeva Centre, Manakondur","type":"MeeSeva","district":"Karimnagar","address":"Manakondur, Karimnagar","pinCode":"505212","phone":"0878-2276543","lat":18.3900,"lng":79.2200,"mapsLink":"https://maps.google.com/?q=18.3900,79.2200","hours":"9:00 AM – 6:00 PM (Mon–Sat)","holiday":"Sundays & Government Holidays"},
  {"name":"Aadhaar Seva Kendra, Karimnagar","type":"Aadhaar","district":"Karimnagar","address":"Near Bus Stand, Karimnagar","pinCode":"505001","phone":"1947","lat":18.4370,"lng":79.1320,"mapsLink":"https://maps.google.com/?q=18.4370,79.1320","hours":"9:30 AM – 5:30 PM (Mon–Sat)","holiday":"Sundays"},
  {"name":"RTO Karimnagar","type":"RTO","district":"Karimnagar","address":"Jagtial Road, Karimnagar","pinCode":"505001","phone":"0878-2242323","lat":18.4420,"lng":79.1350,"mapsLink":"https://maps.google.com/?q=18.4420,79.1350","hours":"10:00 AM – 5:00 PM (Mon–Sat)","holiday":"Sundays & 2nd Saturday"},
  {"name":"Mandal Revenue Office, Karimnagar","type":"Revenue Office","district":"Karimnagar","address":"Collectorate Complex, Karimnagar","pinCode":"505001","phone":"0878-2245566","lat":18.4380,"lng":79.1295,"mapsLink":"https://maps.google.com/?q=18.4380,79.1295","hours":"10:00 AM – 5:00 PM (Mon–Fri)","holiday":"Sat, Sun & Government Holidays"},
  {"name":"Municipal Office, Karimnagar","type":"Municipality","district":"Karimnagar","address":"Mankammathota, Karimnagar","pinCode":"505001","phone":"0878-2240011","lat":18.4350,"lng":79.1270,"mapsLink":"https://maps.google.com/?q=18.4350,79.1270","hours":"10:00 AM – 5:00 PM (Mon–Sat)","holiday":"Sundays & Government Holidays"}
]
