[
  {"name":"MeeSeva Centre, LB Nagar","type":"MeeSeva","district":"Rangareddy","address":"LB Nagar Circle, Rangareddy","pinCode":"500074","phone":"040-24045100","lat":17.3488,"lng":78.5479,"hours":"9:00 AM – 7:00 PM (Mon–Sat)"},
  {"name":"MeeSeva Centre, Mehdipatnam","type":"MeeSeva","district":"Rangareddy","address":"Mehdipatnam Main Road, Rangareddy","pinCode":"500028","phone":"040-23512100","lat":17.3950,"lng":78.4420,"hours":"9:00 AM – 7:00 PM (Mon–Sat)"},
  {"name":"MeeSeva Centre, Gachibowli","type":"MeeSeva","district":"Rangareddy","address":"Gachibowli Main Road, Rangareddy","pinCode":"500032","phone":"040-23001122","lat":17.4410,"lng":78.3490,"hours":"9:00 AM – 7:00 PM (Mon–Sat)"},
  {"name":"MeeSeva Centre, Madhapur","type":"MeeSeva","district":"Rangareddy","address":"HITEC City Road, Madhapur, Rangareddy","pinCode":"500081","phone":"040-23115522","lat":17.4480,"lng":78.3870,"hours":"9:00 AM – 7:00 PM (Mon–Sat)"},
  {"name":"MeeSeva Centre, Dilsukhnagar","type":"MeeSeva","district":"Rangareddy","address":"Dilsukhnagar Main Road, Rangareddy","pinCode":"500060","phone":"040-24055200","lat":17.3687,"lng":78.5247,"hours":"9:00 AM – 7:00 PM (Mon–Sat)"},
  {"name":"MeeSeva Centre, Rajendranagar","type":"MeeSeva","district":"Rangareddy","address":"Rajendranagar, Rangareddy","pinCode":"500030","phone":"040-24010600","lat":17.3260,"lng":78.4430,"hours":"9:00 AM – 7:00 PM (Mon–Sat)"},
  {"name":"MeeSeva Centre, Shamshabad","type":"MeeSeva","district":"Rangareddy","address":"Shamshabad Town, Rangareddy","pinCode":"500100","phone":"040-24020100","lat":17.2440,"lng":78.4360,"hours":"9:00 AM – 7:00 PM (Mon–Sat)"},
  {"name":"Aadhaar Seva Kendra, Dilsukhnagar","type":"Aadhaar","district":"Rangareddy","address":"Dilsukhnagar, Rangareddy","pinCode":"500060","phone":"1947","lat":17.3687,"lng":78.5247,"hours":"9:30 AM – 5:30 PM (Mon–Sat)"},
  {"name":"Aadhaar Seva Kendra, Gachibowli","type":"Aadhaar","district":"Rangareddy","address":"Gachibowli, Rangareddy","pinCode":"500032","phone":"1947","lat":17.4415,"lng":78.3500,"hours":"9:30 AM – 5:30 PM (Mon–Sat)"},
  {"name":"Aadhaar Seva Kendra, LB Nagar","type":"Aadhaar","district":"Rangareddy","address":"LB Nagar, Rangareddy","pinCode":"500074","phone":"1947","lat":17.3490,"lng":78.5480,"hours":"9:30 AM – 5:30 PM (Mon–Sat)"},
  {"name":"RTO Rangareddy, Meerpet","type":"RTO","district":"Rangareddy","address":"Meerpet, Rangareddy","pinCode":"500097","phone":"040-24452626","lat":17.3260,"lng":78.5290,"hours":"10:00 AM – 5:00 PM (Mon–Sat)"},
  {"name":"RTO Shamshabad","type":"RTO","district":"Rangareddy","address":"Shamshabad, Rangareddy","pinCode":"500100","phone":"040-24020200","lat":17.2450,"lng":78.4370,"hours":"10:00 AM – 5:00 PM (Mon–Sat)"},
  {"name":"Mandal Revenue Office, Rajendranagar","type":"Revenue Office","district":"Rangareddy","address":"Rajendranagar, Rangareddy","pinCode":"500030","phone":"040-24010501","lat":17.3260,"lng":78.4430,"hours":"10:00 AM – 5:00 PM (Mon–Fri)"},
  {"name":"Mandal Revenue Office, Serilingampally","type":"Revenue Office","district":"Rangareddy","address":"Serilingampally, Gachibowli, Rangareddy","pinCode":"500032","phone":"040-23001200","lat":17.4420,"lng":78.3510,"hours":"10:00 AM – 5:00 PM (Mon–Fri)"},
  {"name":"Mandal Revenue Office, LB Nagar","type":"Revenue Office","district":"Rangareddy","address":"LB Nagar, Rangareddy","pinCode":"500074","phone":"040-24045200","lat":17.3490,"lng":78.5485,"hours":"10:00 AM – 5:00 PM (Mon–Fri)"},
  {"name":"Mandal Revenue Office, Hayathnagar","type":"Revenue Office","district":"Rangareddy","address":"Hayathnagar, Rangareddy","pinCode":"500089","phone":"040-24050300","lat":17.3400,"lng":78.5870,"hours":"10:00 AM – 5:00 PM (Mon–Fri)"},
  {"name":"GHMC Zonal Office, LB Nagar","type":"GHMC","district":"Rangareddy","address":"LB Nagar Zone, Rangareddy","pinCode":"500074","phone":"040-24045300","lat":17.3495,"lng":78.5475,"hours":"10:00 AM – 5:00 PM (Mon–Sat)"},
  {"name":"GHMC Zonal Office, Serilingampally","type":"GHMC","district":"Rangareddy","address":"Serilingampally Zone, Gachibowli","pinCode":"500032","phone":"040-23001300","lat":17.4425,"lng":78.3520,"hours":"10:00 AM – 5:00 PM (Mon–Sat)"},
  {"name":"Sub-Registrar Office, Madhapur","type":"Sub-Registrar Office","district":"Rangareddy","address":"Madhapur, Rangareddy","pinCode":"500081","phone":"040-23115600","lat":17.4485,"lng":78.3875,"hours":"10:00 AM – 4:30 PM (Mon–Sat)"},
  {"name":"Sub-Registrar Office, LB Nagar","type":"Sub-Registrar Office","district":"Rangareddy","address":"LB Nagar, Rangareddy","pinCode":"500074","phone":"040-24045400","lat":17.3492,"lng":78.5482,"hours":"10:00 AM – 4:30 PM (Mon–Sat)"},
  {"name":"Passport Seva Kendra, Tolichowki","type":"Passport Seva Kendra","district":"Rangareddy","address":"Tolichowki, Rangareddy","pinCode":"500008","phone":"040-23401567","lat":17.3950,"lng":78.4100,"hours":"9:00 AM – 5:00 PM (Mon–Fri)"},
  {"name":"Civil Supplies Office, Vanasthalipuram","type":"Civil Supplies Office","district":"Rangareddy","address":"Vanasthalipuram, Rangareddy","pinCode":"500088","phone":"040-24050400","lat":17.3300,"lng":78.5460,"hours":"10:00 AM – 5:00 PM (Mon–Fri)"}
]
